{"type":"FeatureCollection","features":[{"type":"Feature","id":0,"geometry":{"type":"Point","coordinates":[-73.841885521400442,40.826530053253862]},"properties":{"FID":0,"OBJECTID":1,"NAME":"Zerega","BORONAME":"Bronx","BOROCODE":2,"Shape_Leng":39571.205154099996,"Shape_Area":11900329.222899999,"ORIG_FID":0}},{"type":"Feature","id":1,"geometry":{"type":"Point","coordinates":[-73.903293928057764,40.694980420468021]},"properties":{"FID":1,"OBJECTID":2,"NAME":"Ridgewood","BORONAME":"Queens","BOROCODE":4,"Shape_Leng":15978.825743199999,"Shape_Area":1895671.68884,"ORIG_FID":1}},{"type":"Feature","id":2,"geometry":{"type":"Point","coordinates":[-74.233828125975563,40.548378366003575]},"properties":{"FID":2,"OBJECTID":3,"NAME":"Rossville","BORONAME":"Staten island","BOROCODE":5,"Shape_Leng":33665.853077599997,"Shape_Area":25158841.731199998,"ORIG_FID":2}},{"type":"Feature","id":3,"geometry":{"type":"Point","coordinates":[-73.884715466144613,40.778460094187146]},"properties":{"FID":3,"OBJECTID":4,"NAME":"Astoria","BORONAME":"Queens","BOROCODE":4,"Shape_Leng":68045.262555599998,"Shape_Area":63772685.512500003,"ORIG_FID":3}},{"type":"Feature","id":4,"geometry":{"type":"Point","coordinates":[-73.795240156824747,40.701884506304204]},"properties":{"FID":4,"OBJECTID":5,"NAME":"Jamaica","BORONAME":"Queens","BOROCODE":4,"Shape_Leng":48178.156167000001,"Shape_Area":15662606.9157,"ORIG_FID":4}},{"type":"Feature","id":5,"geometry":{"type":"Point","coordinates":[-73.90127643032487,40.842753970929515]},"properties":{"FID":5,"OBJECTID":6,"NAME":"Bathgate","BORONAME":"Bronx","BOROCODE":2,"Shape_Leng":10443.5624969,"Shape_Area":3180701.8782199998,"ORIG_FID":5}},{"type":"Feature","id":6,"geometry":{"type":"Point","coordinates":[-73.825510613068232,40.886097111160979]},"properties":{"FID":6,"OBJECTID":7,"NAME":"Eastchester","BORONAME":"Bronx","BOROCODE":2,"Shape_Leng":24249.0525352,"Shape_Area":8399407.1681200005,"ORIG_FID":6}},{"type":"Feature","id":7,"geometry":{"type":"Point","coordinates":[-73.786991972271323,40.648381168304105]},"properties":{"FID":7,"OBJECTID":8,"NAME":"JFK","BORONAME":"Queens","BOROCODE":4,"Shape_Leng":73779.814079799995,"Shape_Area":219213619.671,"ORIG_FID":7}},{"type":"Feature","id":8,"geometry":{"type":"Point","coordinates":[-73.883201211373901,40.808872850946287]},"properties":{"FID":8,"OBJECTID":9,"NAME":"Hunts Point","BORONAME":"Bronx","BOROCODE":2,"Shape_Leng":38143.985546000004,"Shape_Area":41388556.791500002,"ORIG_FID":8}},{"type":"Feature","id":9,"geometry":{"type":"Point","coordinates":[-73.956503950298057,40.723518843130378]},"properties":{"FID":9,"OBJECTID":10,"NAME":"Greenpoint/Williamsburg","BORONAME":"Brooklyn","BOROCODE":3,"Shape_Leng":8284.50019058,"Shape_Area":2367025.5928699998,"ORIG_FID":9}},{"type":"Feature","id":10,"geometry":{"type":"Point","coordinates":[-73.972198686446333,40.70203010303625]},"properties":{"FID":10,"OBJECTID":11,"NAME":"Brooklyn Navy Yards","BORONAME":"Brooklyn","BOROCODE":3,"Shape_Leng":15692.031117099999,"Shape_Area":13641269.8521,"ORIG_FID":10}},{"type":"Feature","id":11,"geometry":{"type":"Point","coordinates":[-73.935481378727914,40.720825301455982]},"properties":{"FID":11,"OBJECTID":12,"NAME":"North Brooklyn","BORONAME":"Brooklyn","BOROCODE":3,"Shape_Leng":57666.540543499999,"Shape_Area":40950778.852399997,"ORIG_FID":11}},{"type":"Feature","id":12,"geometry":{"type":"Point","coordinates":[-74.011213702169016,40.664005915889575]},"properties":{"FID":12,"OBJECTID":13,"NAME":"Southwest Brooklyn","BORONAME":"Brooklyn","BOROCODE":3,"Shape_Leng":104954.93992200001,"Shape_Area":62836040.799699999,"ORIG_FID":12}},{"type":"Feature","id":13,"geometry":{"type":"Point","coordinates":[-73.901070018757139,40.670438132067808]},"properties":{"FID":13,"OBJECTID":14,"NAME":"East New York","BORONAME":"Brooklyn","BOROCODE":3,"Shape_Leng":18301.326548500001,"Shape_Area":6951260.5411700001,"ORIG_FID":13}},{"type":"Feature","id":14,"geometry":{"type":"Point","coordinates":[-73.904378751705607,40.649536896471524]},"properties":{"FID":14,"OBJECTID":15,"NAME":"Flatlands/Fairfield","BORONAME":"Brooklyn","BOROCODE":3,"Shape_Leng":60784.996961299999,"Shape_Area":30155833.206999999,"ORIG_FID":14}},{"type":"Feature","id":15,"geometry":{"type":"Point","coordinates":[-73.90583193545379,40.750741621625359]},"properties":{"FID":15,"OBJECTID":16,"NAME":"Woodside","BORONAME":"Queens","BOROCODE":4,"Shape_Leng":6530.7686218299996,"Shape_Area":1249361.5673700001,"ORIG_FID":15}},{"type":"Feature","id":16,"geometry":{"type":"Point","coordinates":[-73.938797902925955,40.745677003771952]},"properties":{"FID":16,"OBJECTID":17,"NAME":"Long Island City","BORONAME":"Queens","BOROCODE":4,"Shape_Leng":62620.730304299999,"Shape_Area":30609641.463599999,"ORIG_FID":16}},{"type":"Feature","id":17,"geometry":{"type":"Point","coordinates":[-73.918174833912317,40.723604535740925]},"properties":{"FID":17,"OBJECTID":18,"NAME":"Maspeth","BORONAME":"Queens","BOROCODE":4,"Shape_Leng":54204.717027799998,"Shape_Area":32953366.153000001,"ORIG_FID":17}},{"type":"Feature","id":18,"geometry":{"type":"Point","coordinates":[-74.19030644803216,40.617117992792004]},"properties":{"FID":18,"OBJECTID":19,"NAME":"Staten Island West Shore","BORONAME":"Staten Island","BOROCODE":5,"Shape_Leng":101559.75984699999,"Shape_Area":90026930.934599996,"ORIG_FID":18}},{"type":"Feature","id":19,"geometry":{"type":"Point","coordinates":[-74.143745869825665,40.640599918656214]},"properties":{"FID":19,"OBJECTID":20,"NAME":"Staten Island North Shore","BORONAME":"Staten Island","BOROCODE":5,"Shape_Leng":44748.383798900002,"Shape_Area":12200436.2455,"ORIG_FID":19}},{"type":"Feature","id":20,"geometry":{"type":"Point","coordinates":[-73.913856022263914,40.803760275686479]},"properties":{"FID":20,"OBJECTID":21,"NAME":"Port Morris","BORONAME":"Bronx","BOROCODE":2,"Shape_Leng":35465.6790052,"Shape_Area":16849938.725099999,"ORIG_FID":20}}]}